[
    { "lat": 52.2694760000,
      "lng": 20.9853330000,
      "name": "Jaskółka",
      "address": "Plac Wilsona 4, Żoliborz, Warszawa",
      "rating": "4.0"
    },
    { "lat": 52.2683910000,
      "lng": 20.9806220000,
      "name": "Kotłownia",
      "address": "Plac Wilsona 4, Żoliborz, Warszawa",
      "rating": "4.0"
    },
    { "lat": 52.2620550398,
      "lng": 20.9807009557,
      "name": "Ulica Baśniowa",
      "address": "Aleja Wojska Polskiego 41, Żoliborz, Warszawa",
      "rating": "4.3"
    },
    { "lat": 52.2700630244,
      "lng": 20.9822780639,
      "name": "Thai Garden",
      "address": "",
      "rating": "4.0"
    },
    { "lat": 52.2667160000,
      "lng": 20.9904110000,
      "name": "Dom",
      "address": "Mierosławskiego 12, Żoliborz, Warszawa",
      "rating": "3.8"
    },
    { "lat": 52.2657583333,
      "lng": 20.9746805556,
      "name": "Burgerownia",
      "address": "Krasińskiego 24, Żoliborz, Warszawa",
      "rating": "3.7"
    },
    { "lat": 52.2722055556,
      "lng": 20.9737750000,
      "name": "Po Byku",
      "address": "Gdańska 1, Żoliborz, Warszawa",
      "rating": "3.6"
    },
    { "lat": 52.2696570000,
      "lng": 20.9795390000,
      "name": "Secret Life Cafe",
      "address": "Słowackiego 15/19, Żoliborz, Warszawa",
      "rating": "3.9"
    },
    { "lat": 52.2618020000,
      "lng": 20.9924350000,
      "name": "El Caribe",
      "address": "Mickiewicza 9, Żoliborz, Warszawa",
      "rating": "3.6"
    }
  ]
